{
    "count": 20,
    "data": [
      {
        "id": "18432371126905846947",
        "title": "方舱医院(新洲区)",
        "address": "湖北省武汉市新洲区邾城全民健身中心(永安大道东)",
        "tel": " ",
        "category": "医疗保健:专科医院:其它专科医院",
        "type": 0,
        "location": {
          "lat": 30.837821,
          "lng": 114.808144
        },
        "ad_info": {
          "adcode": 420117,
          "province": "湖北省",
          "city": "武汉市",
          "district": "新洲区"
        }
      },
      {
        "id": "3422781191435723419",
        "title": "方舱医院(白马驿站)",
        "address": "湖北省武汉市洪山区欢乐大道",
        "tel": " ",
        "category": "医疗保健:急救中心",
        "type": 0,
        "location": {
          "lat": 30.59863,
          "lng": 114.42504
        },
        "ad_info": {
          "adcode": 420111,
          "province": "湖北省",
          "city": "武汉市",
          "district": "洪山区"
        }
      },
      {
        "id": "991451698705158333",
        "title": "长江新城方舱医院",
        "address": "湖北省武汉市江岸区谌家矶特4号",
        "tel": " ",
        "category": "医疗保健:专科医院:其它专科医院",
        "type": 0,
        "location": {
          "lat": 30.681784,
          "lng": 114.36632
        },
        "ad_info": {
          "adcode": 420102,
          "province": "湖北省",
          "city": "武汉市",
          "district": "江岸区"
        }
      },
      {
        "id": "8375497331200164200",
        "title": "方舱医院(洪山体育馆)",
        "address": "湖北省武汉市武昌区体育馆路特1号",
        "tel": " ",
        "category": "医疗保健:急救中心",
        "type": 0,
        "location": {
          "lat": 30.545917,
          "lng": 114.334634
        },
        "ad_info": {
          "adcode": 420106,
          "province": "湖北省",
          "city": "武汉市",
          "district": "武昌区"
        }
      },
      {
        "id": "7925344820650386909",
        "title": "方舱医院(石牌岭高级职业中学)",
        "address": "湖北省武汉市洪山区石牌岭路13号",
        "tel": " ",
        "category": "医疗保健:急救中心",
        "type": 0,
        "location": {
          "lat": 30.524705,
          "lng": 114.342449
        },
        "ad_info": {
          "adcode": 420111,
          "province": "湖北省",
          "city": "武汉市",
          "district": "洪山区"
        }
      },
      {
        "id": "6652001194338833424",
        "title": "方舱医院(江汉经济开发区)",
        "address": "湖北省武汉市江汉区江兴路25号",
        "tel": " ",
        "category": "医疗保健:专科医院:其它专科医院",
        "type": 0,
        "location": {
          "lat": 30.621089,
          "lng": 114.228881
        },
        "ad_info": {
          "adcode": 420103,
          "province": "湖北省",
          "city": "武汉市",
          "district": "江汉区"
        }
      },
      {
        "id": "5701702697671536092",
        "title": "方舱医院(武汉体育馆)",
        "address": "湖北省武汉市硚口区解放大道612号",
        "tel": " ",
        "category": "医疗保健:急救中心",
        "type": 0,
        "location": {
          "lat": 30.577,
          "lng": 114.260066
        },
        "ad_info": {
          "adcode": 420104,
          "province": "湖北省",
          "city": "武汉市",
          "district": "硚口区"
        }
      },
      {
        "id": "1628459359799370760",
        "title": "方舱医院(武汉体育中心)",
        "address": "湖北省武汉市蔡甸区车城北路与体育路交叉口北",
        "tel": " ",
        "category": "医疗保健:急救中心",
        "type": 0,
        "location": {
          "lat": 30.500686,
          "lng": 114.171899
        },
        "ad_info": {
          "adcode": 420114,
          "province": "湖北省",
          "city": "武汉市",
          "district": "蔡甸区"
        }
      },
      {
        "id": "1176807023479966025",
        "title": "方舱医院(武钢体育馆)",
        "address": "湖北省武汉市洪山区仁和路111号",
        "tel": " ",
        "category": "医疗保健:急救中心",
        "type": 0,
        "location": {
          "lat": 30.612412,
          "lng": 114.388901
        },
        "ad_info": {
          "adcode": 420111,
          "province": "湖北省",
          "city": "武汉市",
          "district": "洪山区"
        }
      },
      {
        "id": "18315815015831895224",
        "title": "方舱医院(中国光谷日海)",
        "address": "湖北省武汉市江夏区栗庙路6号",
        "tel": " ",
        "category": "医疗保健:专科医院:其它专科医院",
        "type": 0,
        "location": {
          "lat": 30.39347,
          "lng": 114.426479
        },
        "ad_info": {
          "adcode": 420115,
          "province": "湖北省",
          "city": "武汉市",
          "district": "江夏区"
        }
      },
      {
        "id": "10619400260068264141",
        "title": "方舱医院(黄陂一中体育馆)",
        "address": "湖北省武汉市黄陂区木兰大街",
        "tel": " ",
        "category": "医疗保健:急救中心",
        "type": 0,
        "location": {
          "lat": 30.90544,
          "lng": 114.360695
        },
        "ad_info": {
          "adcode": 420116,
          "province": "湖北省",
          "city": "武汉市",
          "district": "黄陂区"
        }
      },
      {
        "id": "9225570184951427282",
        "title": "方舱医院(塔子湖全民健身中心)",
        "address": "湖北省武汉市江岸区后湖大道99号塔子湖体育中心",
        "tel": " ",
        "category": "医疗保健:急救中心",
        "type": 0,
        "location": {
          "lat": 30.641,
          "lng": 114.284711
        },
        "ad_info": {
          "adcode": 420102,
          "province": "湖北省",
          "city": "武汉市",
          "district": "江岸区"
        }
      },
      {
        "id": "3718649594999284586",
        "title": "方舱医院(蔡甸区知音谷)",
        "address": "湖北省武汉市蔡甸区 ",
        "tel": " ",
        "category": "医疗保健:专科医院:其它专科医院",
        "type": 0,
        "location": {
          "lat": 30.502381,
          "lng": 114.059876
        },
        "ad_info": {
          "adcode": 420114,
          "province": "湖北省",
          "city": "武汉市",
          "district": "蔡甸区"
        }
      },
      {
        "id": "3366677838453795238",
        "title": "方舱医院(武汉国际博览中心)",
        "address": "湖北省武汉市汉阳区鹦鹉大道619号",
        "tel": " ",
        "category": "医疗保健:急救中心",
        "type": 0,
        "location": {
          "lat": 30.507009,
          "lng": 114.242098
        },
        "ad_info": {
          "adcode": 420105,
          "province": "湖北省",
          "city": "武汉市",
          "district": "汉阳区"
        }
      },
      {
        "id": "2971586550349002459",
        "title": "方舱医院(武汉国际会展中心)",
        "address": "湖北省武汉市江汉区解放大道696号",
        "tel": " ",
        "category": "医疗保健:急救中心",
        "type": 0,
        "location": {
          "lat": 30.580293,
          "lng": 114.273331
        },
        "ad_info": {
          "adcode": 420103,
          "province": "湖北省",
          "city": "武汉市",
          "district": "江汉区"
        }
      },
      {
        "id": "14881031431088699661",
        "title": "方舱医院(湖北省委党校新校区)",
        "address": "湖北省武汉市黄陂区 ",
        "tel": " ",
        "category": "医疗保健:专科医院:其它专科医院",
        "type": 0,
        "location": {
          "lat": 30.699498,
          "lng": 114.235175
        },
        "ad_info": {
          "adcode": 420116,
          "province": "湖北省",
          "city": "武汉市",
          "district": "黄陂区"
        }
      },
      {
        "id": "2518374554409196369",
        "title": "方舱医院(武汉经济开发区沌口)",
        "address": "湖北省武汉市蔡甸区 ",
        "tel": " ",
        "category": "医疗保健:专科医院:其它专科医院",
        "type": 0,
        "location": {
          "lat": 30.452971,
          "lng": 114.163264
        },
        "ad_info": {
          "adcode": 420114,
          "province": "湖北省",
          "city": "武汉市",
          "district": "蔡甸区"
        }
      },
      {
        "id": "2419470413466874107",
        "title": "方舱医院(中国光谷科技会展中心)",
        "address": "湖北省武汉市洪山区高新大道787号",
        "tel": " ",
        "category": "医疗保健:急救中心",
        "type": 0,
        "location": {
          "lat": 30.490452,
          "lng": 114.509388
        },
        "ad_info": {
          "adcode": 420111,
          "province": "湖北省",
          "city": "武汉市",
          "district": "洪山区"
        }
      },
      {
        "id": "1735715000387591488",
        "title": "方舱医院(大花山户外运动中心)",
        "address": "湖北省武汉市江夏区纸坊东站向北200米中建二局大花山户外运动中心A馆",
        "tel": " ",
        "category": "医疗保健:急救中心",
        "type": 0,
        "location": {
          "lat": 30.357564,
          "lng": 114.348006
        },
        "ad_info": {
          "adcode": 420115,
          "province": "湖北省",
          "city": "武汉市",
          "district": "江夏区"
        }
      },
      {
        "id": "7064434008062230323",
        "title": "方舱医院(武汉市体育运动学校体育馆)",
        "address": "湖北省武汉市汉阳区 ",
        "tel": " ",
        "category": "医疗保健:专科医院:其它专科医院",
        "type": 0,
        "location": {
          "lat": 30.569881,
          "lng": 114.219133
        },
        "ad_info": {
          "adcode": 420105,
          "province": "湖北省",
          "city": "武汉市",
          "district": "汉阳区"
        }
      }
    ],
    "region": {
      "title": "武汉市"
    }
  }